City_ID,City,Lat,Lng,Max Temp,Humidity,Cloudiness,Wind Speed,Country,Date
0,Cherskiy,68.75,161.3,-9.76,100,100,5.21,RU,2021-10-20 16:53:15
1,Ushuaia,-54.8,-68.3,49.62,53,75,23.02,AR,2021-10-20 16:53:16
2,Konakovo,56.7,36.7667,33.01,94,100,15.12,RU,2021-10-20 16:53:16
3,Skhisma,35.2667,25.7167,66.83,67,5,17.52,GR,2021-10-20 16:53:16
4,Bethel,41.3712,-73.414,73.94,61,61,1.01,US,2021-10-20 16:53:17
5,Atuona,-9.8,-139.0333,76.35,83,28,12.62,PF,2021-10-20 16:53:18
6,Dawei,14.0833,98.2,76.24,91,100,1.7,MM,2021-10-20 16:53:18
7,Puerto Ayora,-0.7393,-90.3518,76.96,80,94,11.12,EC,2021-10-20 16:53:19
8,Suntar,62.1444,117.6319,31.57,91,93,6.13,RU,2021-10-20 16:53:19
9,Bluff,-46.6,168.3333,45.77,66,98,3.36,NZ,2021-10-20 16:53:20
10,Punta Arenas,-53.15,-70.9167,48.31,49,75,21.85,CL,2021-10-20 16:52:03
11,Praia,14.9215,-23.5087,90.14,40,0,20.71,CV,2021-10-20 16:53:20
12,Narsaq,60.9167,-46.05,37.69,33,0,1.72,GL,2021-10-20 16:53:21
13,Albany,42.6001,-73.9662,72.39,56,25,1.99,US,2021-10-20 16:50:51
14,Butaritari,3.0707,172.7902,81.23,72,10,6.96,KI,2021-10-20 16:53:22
15,Hay River,60.8156,-115.7999,35.58,75,75,5.75,CA,2021-10-20 16:53:22
16,Iqaluit,63.7506,-68.5145,33.53,86,75,8.99,CA,2021-10-20 16:53:22
17,Harper,4.375,-7.7169,80.69,80,91,9.86,LR,2021-10-20 16:46:55
18,Port-Gentil,-0.7193,8.7815,80.56,83,75,9.22,GA,2021-10-20 16:53:23
19,Kiama,-34.6833,150.8667,59.38,94,41,1.01,AU,2021-10-20 16:53:24
20,Mataura,-46.1927,168.8643,38.16,88,74,1.74,NZ,2021-10-20 16:49:01
21,Avarua,-21.2078,-159.775,71.65,73,75,4.61,CK,2021-10-20 16:50:23
22,Kaspiysk,42.8816,47.6392,50.23,57,20,7.0,RU,2021-10-20 16:44:14
23,Tamale,9.4008,-0.8393,85.51,63,97,5.41,GH,2021-10-20 16:52:05
24,Saint-Philippe,-21.3585,55.7679,72.99,79,49,9.26,RE,2021-10-20 16:49:24
25,Qiongshan,20.0058,110.3542,75.18,100,0,0.0,CN,2021-10-20 16:53:26
26,Hermanus,-34.4187,19.2345,75.9,67,90,12.03,ZA,2021-10-20 16:53:27
27,Victoria,22.2855,114.1577,80.58,86,88,1.01,HK,2021-10-20 16:53:27
28,Souillac,-20.5167,57.5167,74.35,78,75,11.5,MU,2021-10-20 16:53:28
29,Nikolskoye,59.7035,30.7861,40.87,95,100,13.96,RU,2021-10-20 16:53:28
30,Cape Town,-33.9258,18.4232,70.11,69,0,1.99,ZA,2021-10-20 16:53:29
31,Busselton,-33.65,115.3333,54.09,72,4,14.41,AU,2021-10-20 16:53:29
32,Port Alfred,-33.5906,26.891,66.29,83,7,22.64,ZA,2021-10-20 16:53:30
33,Karratha,-20.7377,116.8463,74.68,33,0,13.4,AU,2021-10-20 16:53:30
34,Codrington,-38.2667,141.9667,67.08,31,100,15.26,AU,2021-10-20 16:49:31
35,Ferrol,43.4832,-8.2369,68.52,72,89,24.18,ES,2021-10-20 16:53:31
36,Qaanaaq,77.484,-69.3632,14.58,86,98,6.06,GL,2021-10-20 16:49:15
37,Asau,46.4333,26.4,54.52,68,64,6.73,RO,2021-10-20 16:47:32
38,Kapaa,22.0752,-159.319,66.52,94,20,5.75,US,2021-10-20 16:52:02
39,Xiaoshi,41.2971,124.1209,38.25,63,58,1.74,CN,2021-10-20 16:53:32
40,Miquelon,47.0975,-56.3814,50.14,89,100,20.83,PM,2021-10-20 16:53:32
41,Mori,34.8333,137.9333,54.45,62,99,7.67,JP,2021-10-20 16:53:33
42,Komsomolskiy,40.4272,71.7189,61.52,41,100,2.3,UZ,2021-10-20 16:53:33
43,Rikitea,-23.1203,-134.9692,74.52,72,0,18.9,PF,2021-10-20 16:53:34
44,Porto Velho,-8.7619,-63.9039,78.85,94,75,11.5,BR,2021-10-20 16:53:34
45,Bambous Virieux,-20.3428,57.7575,74.21,78,75,11.5,MU,2021-10-20 16:49:37
46,Thompson,55.7435,-97.8558,32.16,69,20,11.5,CA,2021-10-20 16:53:35
47,Torbay,47.6666,-52.7314,50.29,98,90,2.3,CA,2021-10-20 16:53:36
48,Upernavik,72.7868,-56.1549,33.21,99,100,17.78,GL,2021-10-20 16:53:36
49,Kita,13.0349,-9.4895,88.2,52,97,2.15,ML,2021-10-20 16:53:36
50,Chokurdakh,70.6333,147.9167,-15.63,94,88,3.0,RU,2021-10-20 16:53:37
51,Palmer,42.1584,-72.3287,73.31,53,20,1.99,US,2021-10-20 16:53:37
52,Hithadhoo,-0.6,73.0833,81.46,77,74,11.63,MV,2021-10-20 16:53:38
53,Yellowknife,62.456,-114.3525,38.41,87,75,11.5,CA,2021-10-20 16:53:38
54,Kyra,49.5776,111.9753,28.47,84,8,4.79,RU,2021-10-20 16:53:39
55,Hilo,19.7297,-155.09,81.28,72,56,6.62,US,2021-10-20 16:53:39
56,Saint George,37.1041,-113.5841,64.87,57,1,3.44,US,2021-10-20 16:50:41
57,Kruisfontein,-34.0033,24.7314,63.07,75,52,9.86,ZA,2021-10-20 16:53:40
58,Teluk Intan,4.0259,101.0213,75.56,97,100,4.14,MY,2021-10-20 16:53:40
59,Khatanga,71.9667,102.5,18.75,90,96,4.94,RU,2021-10-20 16:49:37
60,Grandview,38.8858,-94.533,68.31,73,90,3.0,US,2021-10-20 16:48:42
61,Mahebourg,-20.4081,57.7,74.25,78,75,11.5,MU,2021-10-20 16:53:41
62,Tuktoyaktuk,69.4541,-133.0374,23.0,100,40,8.05,CA,2021-10-20 16:53:42
63,Castro,-24.7911,-50.0119,66.4,55,43,5.28,BR,2021-10-20 16:49:46
64,Burns Lake,54.2331,-125.7533,35.02,85,100,1.74,CA,2021-10-20 16:53:42
65,Guerrero Negro,27.9769,-114.0611,68.5,63,76,10.96,MX,2021-10-20 16:53:43
66,Te Anau,-45.4167,167.7167,35.4,97,42,2.17,NZ,2021-10-20 16:53:43
67,Hobart,-42.8794,147.3294,49.86,75,76,9.22,AU,2021-10-20 16:53:44
68,Vicuna,-30.0319,-70.7081,77.77,36,0,8.88,CL,2021-10-20 16:53:44
69,Ixtapa,20.7,-105.2,85.23,82,7,5.01,MX,2021-10-20 16:53:45
70,Coquimbo,-29.9533,-71.3436,60.53,67,75,10.36,CL,2021-10-20 16:53:45
71,Sidi Ali,36.0998,0.4206,74.89,36,8,9.75,DZ,2021-10-20 16:53:46
72,Sur,22.5667,59.5289,81.5,68,6,15.37,OM,2021-10-20 16:52:11
73,Sena Madureira,-9.0656,-68.6569,95.4,37,75,3.62,BR,2021-10-20 16:52:15
74,Severo-Kurilsk,50.6789,156.125,35.89,69,71,24.43,RU,2021-10-20 16:53:47
75,Konstantinovka,49.6167,127.9833,30.58,68,5,3.85,RU,2021-10-20 16:53:47
76,Pevek,69.7008,170.3133,18.61,93,100,14.54,RU,2021-10-20 16:53:47
77,Hirara,24.8,125.2833,79.03,66,99,9.57,JP,2021-10-20 16:53:48
78,Jamestown,42.097,-79.2353,66.02,65,75,4.0,US,2021-10-20 16:53:48
79,Aksu,41.1231,80.2644,54.9,25,8,1.21,CN,2021-10-20 16:53:49
80,Inongo,-1.95,18.2667,74.53,89,100,3.13,CD,2021-10-20 16:53:49
81,Tournon-Sur-Rhone,45.0667,4.8333,67.5,77,90,19.57,FR,2021-10-20 16:53:50
82,San Patricio,28.017,-97.5169,85.87,58,31,4.9,US,2021-10-20 16:53:50
83,Bhadasar,28.2833,74.3167,82.76,14,0,7.43,IN,2021-10-20 16:53:51
84,Barrow,71.2906,-156.7887,26.62,80,90,27.63,US,2021-10-20 16:53:52
85,Dmytrivka,45.9717,28.9864,55.06,66,91,14.29,UA,2021-10-20 16:53:52
86,Copperas Cove,31.1241,-97.9031,78.55,78,75,9.22,US,2021-10-20 16:51:13
87,Waipawa,-41.4122,175.5153,46.02,83,100,2.13,NZ,2021-10-20 16:44:10
88,Vaini,-21.2,-175.2,71.76,88,20,9.22,TO,2021-10-20 16:53:53
89,Viedma,-40.8135,-62.9967,85.48,14,0,18.16,AR,2021-10-20 16:53:53
90,Itarema,-2.9248,-39.9167,87.84,56,95,13.98,BR,2021-10-20 16:44:05
91,Havelock,34.8791,-76.9013,78.06,54,41,5.99,US,2021-10-20 16:49:57
92,Trelew,-43.249,-65.3051,88.97,12,0,27.13,AR,2021-10-20 16:53:45
93,Sao Joao Da Barra,-21.6403,-41.0511,64.49,92,100,13.2,BR,2021-10-20 16:44:39
94,Flinders,-34.5833,150.8552,59.18,91,30,1.01,AU,2021-10-20 16:53:55
95,Cacheu,12.2706,-16.1658,98.69,59,94,10.38,GW,2021-10-20 16:53:55
96,Bulungu,-4.55,18.6,72.21,97,75,3.51,CD,2021-10-20 16:53:56
97,Giaveno,45.047,7.3492,59.77,79,100,1.83,IT,2021-10-20 16:53:56
98,Seymchan,62.8833,152.4333,-0.35,65,0,2.55,RU,2021-10-20 16:53:57
99,Katsuura,35.1333,140.3,59.14,53,80,13.56,JP,2021-10-20 16:53:57
100,Tapikan,6.8519,124.3225,69.31,97,100,2.84,PH,2021-10-20 16:53:58
101,Kamenka,51.3223,42.7678,36.41,68,88,6.4,RU,2021-10-20 16:52:23
102,Port Elizabeth,-33.918,25.5701,66.49,82,0,13.8,ZA,2021-10-20 16:50:38
103,Nome,64.5011,-165.4064,33.87,93,90,9.22,US,2021-10-20 16:42:38
104,Batticaloa,7.7102,81.6924,81.45,81,46,7.23,LK,2021-10-20 16:53:59
105,Pyapon,16.2833,95.6833,76.42,90,16,5.5,MM,2021-10-20 16:54:00
106,Portland,45.5234,-122.6762,57.45,87,75,1.99,US,2021-10-20 16:51:12
107,Aktau,43.65,51.2,46.98,55,64,21.94,KZ,2021-10-20 16:54:00
108,Fuerte Olimpo,-21.0415,-57.8738,94.12,20,3,5.77,PY,2021-10-20 16:54:01
109,Klyuchi,52.2667,79.1667,46.11,44,41,9.26,RU,2021-10-20 16:54:01
110,Dezful,32.3811,48.4058,78.96,28,10,9.51,IR,2021-10-20 16:54:02
111,Tucumcari,35.1717,-103.725,59.94,33,9,4.63,US,2021-10-20 16:54:03
112,Rantepao,-2.9701,119.8978,65.95,90,96,2.48,ID,2021-10-20 16:54:04
113,Luena,-11.7833,19.9167,69.93,70,96,3.8,AO,2021-10-20 16:54:04
114,Nanakuli,21.3906,-158.1547,73.71,94,1,4.61,US,2021-10-20 16:54:05
115,Tocopilla,-22.092,-70.1979,67.33,60,17,7.54,CL,2021-10-20 16:54:05
116,Grand Gaube,-20.0064,57.6608,74.37,71,7,5.99,MU,2021-10-20 16:54:06
117,Kaitangata,-46.2817,169.8464,42.42,80,96,4.18,NZ,2021-10-20 16:54:06
118,Tabou,4.423,-7.3528,80.55,81,90,9.69,CI,2021-10-20 16:54:07
119,New Norfolk,-42.7826,147.0587,49.5,72,61,3.06,AU,2021-10-20 16:54:07
120,Atambua,-9.1061,124.8925,76.77,83,69,0.6,ID,2021-10-20 16:49:18
121,Opuwo,-18.0607,13.84,80.13,23,1,22.26,NA,2021-10-20 16:44:33
122,Fairbanks,64.8378,-147.7164,23.34,84,1,0.0,US,2021-10-20 16:51:31
123,Quatre Cocos,-20.2078,57.7625,74.08,77,14,11.43,MU,2021-10-20 16:54:08
124,Koumac,-20.5667,164.2833,70.74,96,100,8.19,NC,2021-10-20 16:54:09
125,Saint-Joseph,-21.3667,55.6167,71.98,78,49,8.34,RE,2021-10-20 16:44:33
126,Udachnyy,66.4167,112.4,28.0,97,100,9.33,RU,2021-10-20 16:54:09
127,Saint-Leu,-21.15,55.2833,72.46,93,67,2.06,RE,2021-10-20 16:54:10
128,San Cristobal,7.7669,-72.225,78.98,36,13,5.91,VE,2021-10-20 16:54:10
129,Dubti,11.7361,41.0853,95.85,19,69,8.84,ET,2021-10-20 16:54:11
130,Kaeo,-35.1,173.7833,60.33,95,100,14.29,NZ,2021-10-20 16:54:11
131,Georgetown,5.4112,100.3354,76.98,95,40,8.01,MY,2021-10-20 16:54:12
132,Uyutne,45.1994,33.3014,49.82,68,74,10.85,UA,2021-10-20 16:54:12
133,Raahe,64.6833,24.4833,33.89,94,100,18.66,FI,2021-10-20 16:54:13
134,Bengkulu,-3.8004,102.2655,73.99,94,100,5.35,ID,2021-10-20 16:50:50
135,Masallatah,32.6167,14.0,69.15,70,49,14.97,LY,2021-10-20 16:54:13
136,Port Washington,40.8257,-73.6982,76.01,51,41,14.0,US,2021-10-20 16:53:35
137,Egvekinot,66.3167,-179.1667,21.25,91,100,7.18,RU,2021-10-20 16:51:08
138,Imbituba,-28.24,-48.6703,69.69,67,89,8.34,BR,2021-10-20 16:54:14
139,Ribeira Grande,38.5167,-28.7,72.0,64,20,6.91,PT,2021-10-20 16:54:15
140,Gravdal,68.1214,13.5031,31.89,93,75,5.75,NO,2021-10-20 16:54:15
141,Hargeysa,9.56,44.065,72.03,54,45,12.35,SO,2021-10-20 16:54:16
142,Saint Anthony,45.0205,-93.218,58.93,77,40,4.0,US,2021-10-20 16:47:05
143,Weligama,5.9667,80.4167,77.85,89,71,5.66,LK,2021-10-20 16:54:16
144,Jaruco,23.0431,-82.0108,83.43,58,91,14.25,CU,2021-10-20 16:54:17
145,Hackettstown,40.854,-74.8291,74.91,56,33,10.47,US,2021-10-20 16:54:17
146,Flin Flon,54.7682,-101.865,33.64,75,40,3.44,CA,2021-10-20 16:54:18
147,Samarai,-10.6167,150.6667,81.23,81,93,8.7,PG,2021-10-20 16:54:18
148,Bara,10.3744,10.7288,84.7,56,24,8.75,NG,2021-10-20 16:54:18
149,Provideniya,64.3833,-173.3,24.37,89,76,3.02,RU,2021-10-20 16:54:19
150,Tiksi,71.6872,128.8694,13.14,93,100,6.13,RU,2021-10-20 16:54:19
151,Nurmijarvi,60.4641,24.8073,54.3,93,75,10.36,FI,2021-10-20 16:54:20
152,Hasaki,35.7333,140.8333,52.2,55,52,18.32,JP,2021-10-20 16:54:20
153,Batagay-Alyta,67.8006,130.4114,11.08,92,100,1.81,RU,2021-10-20 16:54:21
154,Pisco,-13.7,-76.2167,66.02,77,0,9.22,PE,2021-10-20 16:54:21
155,Puerto Madryn,-42.7692,-65.0385,80.17,22,0,27.49,AR,2021-10-20 16:53:45
156,Kirovohrad,48.5132,32.2597,49.84,69,73,13.04,UA,2021-10-20 16:54:23
157,Cayenne,4.9333,-52.3333,91.44,75,40,4.0,GF,2021-10-20 16:54:24
158,Dikson,73.5069,80.5464,26.53,64,99,12.21,RU,2021-10-20 16:49:31
159,Tilichiki,60.4667,166.1,3.22,89,79,4.65,RU,2021-10-20 16:54:25
160,Port Lincoln,-34.7333,135.8667,60.12,84,43,16.93,AU,2021-10-20 16:54:25
161,Bonthe,7.5264,-12.505,82.94,72,100,10.33,SL,2021-10-20 16:54:26
162,Carlagan,14.975,122.0456,81.45,83,92,10.29,PH,2021-10-20 16:54:26
163,Srednekolymsk,67.45,153.6833,-9.94,97,19,2.51,RU,2021-10-20 16:47:20
164,Toora-Khem,52.4675,96.11,28.76,73,0,2.35,RU,2021-10-20 16:54:27
165,Kapuskasing,49.4169,-82.4331,35.69,93,90,9.22,CA,2021-10-20 16:54:28
166,Wahiawa,21.5028,-158.0236,70.47,92,1,4.61,US,2021-10-20 16:54:28
167,Faya,18.3851,42.4509,70.32,31,7,8.66,SA,2021-10-20 16:54:28
168,Havre-Saint-Pierre,50.2334,-63.5986,53.96,71,40,5.75,CA,2021-10-20 16:54:29
169,Buraydah,26.326,43.975,88.25,19,0,11.48,SA,2021-10-20 16:54:29
170,Lagoa,39.05,-27.9833,67.87,63,59,1.88,PT,2021-10-20 16:54:30
171,Briancon,44.9,6.65,50.94,85,99,4.83,FR,2021-10-20 16:54:30
172,Caravelas,-17.7125,-39.2481,73.44,88,99,7.02,BR,2021-10-20 16:54:31
173,Byron Bay,-28.65,153.6167,63.88,88,92,4.05,AU,2021-10-20 16:54:31
174,Marzuq,14.4,46.4667,77.52,49,65,5.66,YE,2021-10-20 16:54:32
175,Znamenskoye,57.1281,73.8282,41.22,64,97,5.86,RU,2021-10-20 16:54:32
176,Northam,51.0333,-4.2167,56.82,89,62,7.7,GB,2021-10-20 16:52:08
177,Puerto Del Rosario,28.5004,-13.8627,78.48,73,20,12.66,ES,2021-10-20 16:54:33
178,Puerto Madero,14.7208,-92.4215,82.33,77,100,11.83,MX,2021-10-20 16:54:33
179,Callaguip,18.0714,120.4867,79.72,81,11,3.96,PH,2021-10-20 16:54:34
180,Faanui,-16.4833,-151.75,79.2,78,60,12.37,PF,2021-10-20 16:54:34
181,Orlik,52.5178,99.825,27.54,69,4,3.51,RU,2021-10-20 16:54:35
182,Sinnamary,5.3833,-52.95,84.33,70,45,9.42,GF,2021-10-20 16:54:35
183,Haimen,23.1935,116.6142,75.09,85,78,4.74,CN,2021-10-20 16:54:36
184,Santarem,-2.4431,-54.7083,89.73,66,40,8.05,BR,2021-10-20 16:51:08
185,Tuatapere,-46.1333,167.6833,41.43,84,92,1.39,NZ,2021-10-20 16:54:36
186,Ancud,-41.8697,-73.8203,65.43,81,100,9.24,CL,2021-10-20 16:54:37
187,Saskylakh,71.9167,114.0833,5.13,99,91,3.31,RU,2021-10-20 16:46:56
188,Waingapu,-9.6567,120.2641,80.42,77,77,4.85,ID,2021-10-20 16:54:37
189,Aksay,47.26,39.87,45.25,39,25,11.01,RU,2021-10-20 16:54:38
190,Goderich,43.7501,-81.7165,62.91,82,45,10.36,CA,2021-10-20 16:54:39
191,Odesskoye,54.2111,72.9651,46.29,53,94,9.06,RU,2021-10-20 16:54:39
192,Pangnirtung,66.1451,-65.7125,32.0,93,40,0.0,CA,2021-10-20 16:54:39
193,Dingle,10.9995,122.6711,76.23,93,97,5.66,PH,2021-10-20 16:54:40
194,Cidreira,-30.1811,-50.2056,65.48,59,83,13.47,BR,2021-10-20 16:54:40
195,Lakselv,70.0513,24.9718,26.42,74,0,8.05,NO,2021-10-20 16:54:41
196,Yining,29.0361,114.5636,51.04,96,100,1.83,CN,2021-10-20 16:54:41
197,Carnarvon,-24.8667,113.6333,68.07,60,90,12.66,AU,2021-10-20 16:54:42
198,Qaqortoq,60.7167,-46.0333,39.22,39,0,1.07,GL,2021-10-20 16:54:42
199,Kaduqli,11.0167,29.7167,85.44,36,49,5.64,SD,2021-10-20 16:52:15
200,Airai,-8.9266,125.4092,62.71,90,60,0.67,TL,2021-10-20 16:54:43
201,Kulhudhuffushi,6.6221,73.07,81.54,74,98,11.9,MV,2021-10-20 16:50:49
202,Belaya Gora,68.5333,146.4167,-9.99,97,70,1.39,RU,2021-10-20 16:54:43
203,Kodiak,57.79,-152.4072,42.44,89,100,6.44,US,2021-10-20 16:54:44
204,Salalah,17.0151,54.0924,77.34,80,98,3.89,OM,2021-10-20 16:50:56
205,Santa Maria,-29.6842,-53.8069,74.5,43,40,10.36,BR,2021-10-20 16:54:45
206,Roald,62.5833,6.1333,48.16,87,75,12.66,NO,2021-10-20 16:54:45
207,Havoysund,70.9963,24.6622,28.63,64,100,23.44,NO,2021-10-20 16:52:32
208,Bilma,18.6853,12.9164,91.92,11,0,9.82,NE,2021-10-20 16:54:46
209,Posse,-14.0931,-46.3694,88.81,37,75,2.71,BR,2021-10-20 16:54:46
210,Umea,63.8284,20.2597,44.53,100,90,4.61,SE,2021-10-20 16:54:47
211,Bredasdorp,-34.5322,20.0403,66.27,88,90,13.56,ZA,2021-10-20 16:54:47
212,Saldanha,-33.0117,17.9442,64.45,71,93,1.45,ZA,2021-10-20 16:54:48
213,Cap Malheureux,-19.9842,57.6142,74.46,71,6,5.99,MU,2021-10-20 16:54:48
214,Moses Lake,47.1301,-119.2781,54.18,74,100,10.33,US,2021-10-20 16:54:48
215,Rio De Janeiro,-22.9028,-43.2075,69.75,78,90,8.05,BR,2021-10-20 16:54:49
216,Chuy,-33.6971,-53.4616,66.99,53,17,11.05,UY,2021-10-20 16:54:49
217,Mar Del Plata,-38.0023,-57.5575,68.02,1,20,14.0,AR,2021-10-20 16:54:50
218,Astaneh-Ye Ashrafiyeh,37.2596,49.9444,58.93,94,100,6.2,IR,2021-10-20 16:54:50
219,Grindavik,63.8424,-22.4338,35.55,69,0,5.75,IS,2021-10-20 16:54:51
220,Resistencia,-27.4606,-58.9839,85.08,31,0,4.61,AR,2021-10-20 16:54:52
221,Husavik,66.0449,-17.3389,30.11,75,73,5.59,IS,2021-10-20 16:54:52
222,Autun,46.95,4.3,66.9,97,100,4.05,FR,2021-10-20 16:51:24
223,Mpulungu,-8.7623,31.1141,79.48,59,53,4.18,ZM,2021-10-20 16:54:53
224,Odessa,46.4775,30.7326,55.33,76,0,11.18,UA,2021-10-20 16:54:53
225,Arraial Do Cabo,-22.9661,-42.0278,64.36,88,75,1.14,BR,2021-10-20 16:54:53
226,Kushnarenkovo,55.105,55.3508,35.98,70,99,10.0,RU,2021-10-20 16:54:54
227,Zhangjiakou,40.81,114.8794,38.05,35,8,7.05,CN,2021-10-20 16:54:54
228,Anloga,5.7947,0.8973,82.62,79,84,13.69,GH,2021-10-20 16:54:55
229,Djambala,-2.5447,14.7533,69.08,93,100,3.29,CG,2021-10-20 16:54:55
230,Tasiilaq,65.6145,-37.6368,27.68,57,95,11.16,GL,2021-10-20 16:54:56
231,Hambantota,6.1241,81.1185,79.3,86,51,9.91,LK,2021-10-20 16:54:56
232,Luderitz,-26.6481,15.1594,60.91,76,55,10.4,NA,2021-10-20 16:54:56
233,Rawson,-43.3002,-65.1023,83.41,18,0,28.21,AR,2021-10-20 16:54:57
234,Kavieng,-2.5744,150.7967,81.09,79,43,6.87,PG,2021-10-20 16:54:57
235,Nantucket,41.2835,-70.0995,70.14,71,10,11.14,US,2021-10-20 16:53:54
236,Salinas,36.6777,-121.6555,64.87,56,90,17.27,US,2021-10-20 16:50:52
237,Anadyr,64.75,177.4833,21.7,92,75,17.0,RU,2021-10-20 16:54:58
238,Iisalmi,63.5592,27.1907,35.62,99,100,11.12,FI,2021-10-20 16:54:59
239,Quelimane,-17.8786,36.8883,76.95,73,40,8.99,MZ,2021-10-20 16:54:59
240,Ternate,0.8,127.4,80.69,80,85,3.94,ID,2021-10-20 16:55:00
241,Dakar,14.6937,-17.4441,95.88,62,0,13.8,SN,2021-10-20 16:52:09
242,Vestmannaeyjar,63.4427,-20.2734,36.59,60,0,25.32,IS,2021-10-20 16:55:00
243,Kuusamo,65.9667,29.1833,26.64,93,90,17.27,FI,2021-10-20 16:55:01
244,Klaksvik,62.2266,-6.589,40.12,75,99,40.62,FO,2021-10-20 16:55:02
245,Ponta Delgada,37.7333,-25.6667,70.52,68,20,8.05,PT,2021-10-20 16:55:02
246,Deputatskiy,69.3,139.9,-2.06,98,99,1.79,RU,2021-10-20 16:55:03
247,Manggar,-2.8833,108.2667,79.84,80,97,3.18,ID,2021-10-20 16:55:04
248,Thinadhoo,0.5333,72.9333,82.2,76,36,12.59,MV,2021-10-20 16:55:05
249,Sitka,57.0531,-135.33,53.49,54,75,16.11,US,2021-10-20 16:51:48
250,Davila,18.4726,120.5763,79.9,82,20,3.4,PH,2021-10-20 16:55:06
251,Walla Walla,46.0646,-118.343,65.86,66,100,5.01,US,2021-10-20 16:54:59
252,Langsa,4.4683,97.9683,73.71,95,100,0.89,ID,2021-10-20 16:55:07
253,Broken Hill,-31.95,141.4333,71.31,17,90,11.5,AU,2021-10-20 16:55:08
254,Seminole,28.7086,-81.2081,85.98,64,9,1.01,US,2021-10-20 16:55:08
255,Muros,42.7762,-9.0603,68.23,84,18,17.16,ES,2021-10-20 16:55:09
256,Prince Rupert,54.3161,-130.3201,51.89,68,90,13.8,CA,2021-10-20 16:55:09
257,Norman Wells,65.282,-126.8329,32.04,69,75,11.5,CA,2021-10-20 16:55:10
258,Geraldton,-28.7667,114.6,64.81,77,90,10.36,AU,2021-10-20 16:55:10
259,East London,-33.0153,27.9116,68.94,73,0,16.11,ZA,2021-10-20 16:55:10
260,Longyearbyen,78.2186,15.6401,10.24,72,20,11.5,SJ,2021-10-20 16:55:11
261,Nemuro,43.3236,145.575,49.48,83,100,23.24,JP,2021-10-20 16:55:11
262,Namibe,-15.1961,12.1522,68.61,85,16,11.56,AO,2021-10-20 16:55:12
263,Ponta Do Sol,32.6667,-17.1,80.71,73,98,3.29,PT,2021-10-20 16:50:39
264,Malakal,9.5334,31.6605,78.4,69,70,4.65,SS,2021-10-20 16:55:13
265,Padang,-0.9492,100.3543,75.25,85,100,2.37,ID,2021-10-20 16:55:13
266,Charters Towers,-20.1,146.2667,69.75,96,10,7.4,AU,2021-10-20 16:55:14
267,Waddan,29.1614,16.139,72.57,41,85,12.97,LY,2021-10-20 16:55:14
268,Srivardhan,18.0333,73.0167,77.56,79,84,7.36,IN,2021-10-20 16:55:15
269,Seddon,-37.8068,144.8916,60.8,82,0,3.44,AU,2021-10-20 16:55:15
270,Labuhan,-6.8844,112.2051,80.4,79,74,7.38,ID,2021-10-20 16:47:15
271,Orange Cove,36.6244,-119.3137,74.28,26,85,2.48,US,2021-10-20 16:55:16
272,Sainte-Suzanne,-20.9061,55.6089,73.62,87,90,9.22,RE,2021-10-20 16:55:16
273,Lere,10.387,8.5726,76.62,64,54,4.36,NG,2021-10-20 16:55:17
274,Peru,40.7537,-86.0689,70.59,59,1,11.5,US,2021-10-20 16:52:56
275,Nizhniy Baskunchak,48.2198,46.8311,40.96,56,40,10.67,RU,2021-10-20 16:55:17
276,Lompoc,34.6391,-120.4579,70.09,81,1,5.75,US,2021-10-20 16:55:18
277,Guanica,17.9716,-66.908,90.5,72,40,8.99,PR,2021-10-20 16:55:18
278,Comodoro Rivadavia,-45.8667,-67.5,82.26,24,20,16.11,AR,2021-10-20 16:52:31
279,Apac,1.9756,32.5386,70.03,82,100,2.37,UG,2021-10-20 16:55:19
280,Sambava,-14.2667,50.1667,73.4,83,7,7.72,MG,2021-10-20 16:55:19
281,Talnakh,69.4865,88.3972,33.03,89,99,19.06,RU,2021-10-20 16:55:20
282,Sitarganj,28.9333,79.7,71.49,84,0,4.09,IN,2021-10-20 16:55:21
283,Coihaique,-45.5752,-72.0662,59.61,58,90,5.75,CL,2021-10-20 16:55:21
284,La Ronge,55.1001,-105.2842,37.65,65,40,8.05,CA,2021-10-20 16:48:52
285,Faranah,10.0404,-10.7434,76.39,87,100,1.86,GN,2021-10-20 16:55:22
286,Shediac,46.2198,-64.5411,53.65,71,75,2.3,CA,2021-10-20 16:55:22
287,Bay City,43.5945,-83.8889,67.66,72,75,6.91,US,2021-10-20 16:54:01
288,Beringovskiy,63.05,179.3167,17.56,80,83,8.7,RU,2021-10-20 16:55:23
289,Isangel,-19.55,169.2667,75.22,88,100,9.37,VU,2021-10-20 16:55:23
290,Belyy Yar,53.6039,91.3903,28.29,93,40,4.47,RU,2021-10-20 16:55:24
291,Leningradskiy,69.3833,178.4167,24.28,96,100,16.44,RU,2021-10-20 16:55:24
292,Kabalo,-6.05,26.9167,74.28,87,84,3.78,CD,2021-10-20 16:55:25
293,Jiaocheng,24.6774,116.1389,70.75,90,86,1.03,CN,2021-10-20 16:55:25
294,Pedernales,18.0384,-71.744,85.21,70,33,5.84,DO,2021-10-20 16:55:26
295,Bethalto,38.9092,-90.0407,75.15,64,8,4.0,US,2021-10-20 16:55:26
296,Umm Kaddadah,13.6017,26.6876,92.82,16,91,11.86,SD,2021-10-20 16:55:26
297,Knysna,-34.0363,23.0471,68.38,78,78,7.74,ZA,2021-10-20 16:55:27
298,Xinxiang,35.3089,113.8672,49.06,90,9,6.13,CN,2021-10-20 16:55:27
299,Omboue,-1.5746,9.2618,77.59,81,98,7.47,GA,2021-10-20 16:55:28
300,Jakar,27.5492,90.7525,55.92,100,100,0.89,BT,2021-10-20 16:55:28
301,Makubetsu,45.3714,141.8211,40.08,93,100,22.21,JP,2021-10-20 16:55:29
302,Binga,-17.6203,27.3414,79.02,50,17,10.2,ZW,2021-10-20 16:55:29
303,Alta Floresta,-9.8756,-56.0861,88.95,47,77,2.59,BR,2021-10-20 16:55:30
304,Clinton,42.587,-82.9199,69.94,64,75,1.01,US,2021-10-20 16:53:53
305,Khash,28.2211,61.2158,72.16,27,0,7.9,IR,2021-10-20 16:55:31
306,Veraval,20.9,70.3667,79.34,65,6,7.4,IN,2021-10-20 16:55:31
307,Evensk,61.95,159.2333,8.64,73,99,9.51,RU,2021-10-20 16:55:32
308,Corvallis,44.5646,-123.262,57.67,84,75,1.99,US,2021-10-20 16:55:32
309,Saint-Denis,48.9167,2.3333,67.08,76,90,3.0,FR,2021-10-20 16:55:33
310,Gayny,60.3071,54.3241,31.06,84,97,5.19,RU,2021-10-20 16:55:34
311,Rosarito,32.3333,-117.0333,66.42,60,45,3.96,MX,2021-10-20 16:55:34
312,Lethem,3.3803,-59.7968,92.79,46,49,4.74,GY,2021-10-20 16:55:35
313,Mount Gambier,-37.8333,140.7667,66.11,34,40,12.66,AU,2021-10-20 16:55:35
314,Jiayuguan,39.8167,98.3,41.13,27,93,6.4,CN,2021-10-20 16:55:36
315,Abha,18.2164,42.5053,70.05,15,0,6.91,SA,2021-10-20 16:53:07
316,Sarkand,45.41,79.9186,57.15,21,97,6.42,KZ,2021-10-20 16:55:36
317,Two Rivers,44.1539,-87.5693,67.06,72,1,1.01,US,2021-10-20 16:55:37
318,Sortavala,61.7053,30.6918,39.0,95,100,20.6,RU,2021-10-20 16:55:38
319,Virtsu,58.5716,23.5115,54.05,98,100,32.7,EE,2021-10-20 16:55:38
320,Mount Isa,-20.7333,139.5,76.77,38,76,5.75,AU,2021-10-20 16:55:39
321,Nawa,27.0167,75.0,76.8,23,0,6.58,IN,2021-10-20 16:55:39
322,Bintulu,3.1667,113.0333,75.61,100,40,5.99,MY,2021-10-20 16:55:40
323,Laguna,38.421,-121.4238,66.04,60,90,1.01,US,2021-10-20 16:51:37
324,Margate,51.3813,1.3862,60.66,73,2,5.01,GB,2021-10-20 16:52:55
325,Saint-Francois,46.4154,3.9054,67.44,66,0,13.8,FR,2021-10-20 16:55:40
326,Paamiut,61.994,-49.6678,36.68,60,0,10.33,GL,2021-10-20 16:55:41
327,Rio Grande,-32.035,-52.0986,69.91,58,91,12.91,BR,2021-10-20 16:51:09
328,Esperance,-33.8667,121.9,57.04,83,86,15.52,AU,2021-10-20 16:55:41
329,Troyes,48.3333,4.0833,64.45,48,90,10.0,FR,2021-10-20 16:55:42
330,Suruc,36.9761,38.425,66.4,25,0,4.14,TR,2021-10-20 16:55:43
331,Zlatibor,43.7168,19.7,51.69,55,4,3.76,RS,2021-10-20 16:55:43
332,Soledad,10.9184,-74.7646,86.13,79,40,8.05,CO,2021-10-20 16:54:38
333,Viransehir,37.2353,39.7631,66.61,29,7,6.42,TR,2021-10-20 16:55:44
334,Ryde,50.73,-1.1621,60.1,78,38,3.0,GB,2021-10-20 16:55:44
335,Juruti,-2.1522,-56.0922,94.78,38,32,3.4,BR,2021-10-20 16:53:13
336,Cabo San Lucas,22.8909,-109.9124,84.61,70,19,4.92,MX,2021-10-20 16:55:45
337,Yumen,40.2833,97.2,43.18,23,96,10.33,CN,2021-10-20 16:55:45
338,Tayoltita,24.0833,-105.9333,81.77,37,0,3.18,MX,2021-10-20 16:55:46
339,Mana,5.6592,-53.7767,86.09,65,44,8.66,GF,2021-10-20 16:55:46
340,Duvan,55.695,57.9024,32.25,79,100,9.82,RU,2021-10-20 16:55:47
341,Akyab,20.15,92.9,79.27,86,67,0.98,MM,2021-10-20 16:55:47
342,Ostrovnoy,68.0531,39.5131,30.38,71,100,8.61,RU,2021-10-20 16:55:48
343,Rio Gallegos,-51.6226,-69.2181,51.85,35,75,23.02,AR,2021-10-20 16:55:48
344,Shingu,33.7333,135.9833,51.17,72,100,6.35,JP,2021-10-20 16:55:49
345,Aklavik,68.2191,-135.0107,20.12,85,100,8.19,CA,2021-10-20 16:55:49
346,Cockburn Town,21.4612,-71.1419,82.29,76,67,13.53,TC,2021-10-20 16:51:39
347,Stornoway,58.2093,-6.3865,48.92,70,40,20.71,GB,2021-10-20 16:55:50
348,Fairview,40.8126,-73.999,75.65,49,1,5.99,US,2021-10-20 16:54:05
349,Sabang,5.8933,95.3214,81.63,71,100,5.53,ID,2021-10-20 16:47:34
350,Carutapera,-1.195,-46.02,86.68,60,28,8.12,BR,2021-10-20 16:55:51
351,Rawlins,41.7911,-107.2387,42.33,73,39,16.75,US,2021-10-20 16:55:41
352,Atar,20.5169,-13.0499,97.45,9,3,17.25,MR,2021-10-20 16:47:41
353,Jobat,22.4167,74.5667,74.64,57,2,3.15,IN,2021-10-20 16:55:52
354,Vaitape,-16.5167,-151.75,79.25,78,61,12.33,PF,2021-10-20 16:55:52
355,Wattegama,6.7989,81.4808,76.59,89,35,1.92,LK,2021-10-20 16:55:53
356,Praia Da Vitoria,38.7333,-27.0667,73.76,88,75,2.3,PT,2021-10-20 16:55:54
357,Qasigiannguit,68.8193,-51.1922,28.17,75,100,3.31,GL,2021-10-20 16:55:54
358,Colares,38.7992,-9.4469,73.29,77,90,10.36,PT,2021-10-20 16:55:55
359,Broome,42.2506,-75.833,72.01,56,8,5.01,US,2021-10-20 16:55:55
360,Glenwood Springs,39.5505,-107.3248,46.81,80,1,11.5,US,2021-10-20 16:55:56
361,Mujiayingzi,42.1167,118.7833,39.25,37,94,4.47,CN,2021-10-20 16:55:56
362,Soe,-9.8607,124.284,68.22,81,64,2.51,ID,2021-10-20 16:55:57
363,Minbu,20.1833,94.8833,76.84,90,28,5.84,MM,2021-10-20 16:55:57
364,Tinskoy,56.1525,96.9161,36.34,80,6,4.76,RU,2021-10-20 16:55:58
365,Baykit,61.67,96.37,37.35,94,92,3.76,RU,2021-10-20 16:55:58
366,Rio De Jesus,7.9844,-81.1631,83.61,74,77,3.98,PA,2021-10-20 16:55:59
367,Oktyabrskoye,43.0645,44.7417,41.14,93,75,4.47,RU,2021-10-20 16:55:59
368,Labytnangi,66.6572,66.4183,24.71,91,24,4.32,RU,2021-10-20 16:55:59
369,Gornopravdinsk,60.05,69.9,36.43,96,100,6.24,RU,2021-10-20 16:56:00
370,Rabo De Peixe,37.8,-25.5833,69.31,68,20,8.05,PT,2021-10-20 16:56:00
371,Sal Rei,16.1833,-22.9167,86.2,66,0,17.27,CV,2021-10-20 16:56:01
372,Ust-Tsilma,65.441,52.1498,30.99,86,73,7.34,RU,2021-10-20 16:56:02
373,Touros,-5.1989,-35.4608,88.7,62,100,12.06,BR,2021-10-20 16:56:03
374,Wyndham,37.6985,-77.6125,76.32,46,10,1.01,US,2021-10-20 16:56:03
375,Bathsheba,13.2167,-59.5167,86.61,74,75,17.27,BB,2021-10-20 16:51:51
376,Roseburg,43.2165,-123.3417,54.37,83,67,4.05,US,2021-10-20 16:56:04
377,Beloha,-25.1667,45.05,69.28,80,96,13.44,MG,2021-10-20 16:56:04
378,Lebu,-37.6167,-73.65,57.81,76,87,7.83,CL,2021-10-20 16:56:05
379,Ewa Beach,21.3156,-158.0072,73.69,81,1,5.01,US,2021-10-20 16:56:05
380,Khatassy,61.9036,129.6383,17.58,94,100,4.23,RU,2021-10-20 16:56:05
381,Guarapari,-20.6667,-40.4975,67.89,94,100,16.73,BR,2021-10-20 16:56:06
382,San Vicente,-26.6167,-54.1333,79.57,29,2,1.68,AR,2021-10-20 16:56:06
383,Aitape,-3.1374,142.3475,77.61,88,99,2.33,PG,2021-10-20 16:56:07
384,Ler,8.3018,30.1418,74.8,90,100,5.66,SS,2021-10-20 16:56:07
385,Panglao,9.5781,123.7458,82.09,74,100,2.51,PH,2021-10-20 16:56:08
386,Ulaangom,49.9811,92.0667,33.06,69,5,3.13,MN,2021-10-20 16:56:08
387,Shitanjing,39.2342,106.3439,40.51,28,0,2.73,CN,2021-10-20 16:56:09
388,Arcata,40.8665,-124.0828,60.21,96,100,1.01,US,2021-10-20 16:54:05
389,Trat,12.5,102.5,81.99,94,100,2.39,TH,2021-10-20 16:56:10
390,Sao Filipe,14.8961,-24.4956,83.55,59,0,9.82,CV,2021-10-20 16:56:10
391,Kidodi,-7.6036,37.0044,83.98,39,87,5.48,TZ,2021-10-20 16:56:11
392,Skagen,57.7209,10.5839,54.27,81,100,27.72,DK,2021-10-20 16:56:11
393,Santa Cruz De La Palma,28.6835,-17.7642,82.54,47,64,13.8,ES,2021-10-20 16:56:12
394,Storforshei,66.4043,14.5233,33.58,80,75,14.97,NO,2021-10-20 16:56:12
395,Gaoyou,32.7858,119.4278,50.94,74,100,7.27,CN,2021-10-20 16:56:13
396,Hurghada,27.2574,33.8129,80.64,47,0,16.11,EG,2021-10-20 16:54:49
397,Pemberton,50.3164,-122.8027,46.09,99,96,2.62,CA,2021-10-20 16:56:13
398,Teguldet,57.3064,88.1667,37.29,82,94,4.83,RU,2021-10-20 16:56:14
399,Sandakan,5.8402,118.1179,74.88,100,97,3.0,MY,2021-10-20 16:56:15
400,Hobyo,5.3505,48.5268,78.82,81,94,16.2,SO,2021-10-20 16:56:15
401,George Town,5.4112,100.3354,76.98,95,40,8.01,MY,2021-10-20 16:53:19
402,Vardo,70.3705,31.1107,31.98,64,20,16.11,NO,2021-10-20 16:56:16
403,Thomaston,32.8882,-84.3266,76.01,57,1,1.99,US,2021-10-20 16:55:07
404,Paramonga,-10.6667,-77.8333,69.28,74,97,11.32,PE,2021-10-20 16:56:16
405,Xining,36.6167,101.7667,39.78,89,100,1.88,CN,2021-10-20 16:56:17
406,Gerash,27.6652,54.1371,77.14,20,0,4.5,IR,2021-10-20 16:56:17
407,Aksehir,38.3575,31.4164,53.04,57,10,5.37,TR,2021-10-20 16:56:18
408,Mecca,21.4267,39.8261,85.17,52,2,4.74,SA,2021-10-20 16:54:26
409,Murchison,-41.8,172.3333,46.15,97,100,1.32,NZ,2021-10-20 16:56:19
410,Teguise,29.0605,-13.564,75.42,65,20,13.8,ES,2021-10-20 16:56:20
411,Bijie,27.3125,105.2942,47.07,93,100,5.77,CN,2021-10-20 16:56:20
412,Saint-Augustin,51.226,-58.6502,47.89,80,100,13.56,CA,2021-10-20 16:47:13
413,Aripuana,-9.1667,-60.6333,95.54,36,35,2.71,BR,2021-10-20 16:56:21
414,Along,28.1667,94.7667,71.01,100,100,0.56,IN,2021-10-20 16:56:22
415,Ambon,-3.6954,128.1814,80.33,80,13,2.35,ID,2021-10-20 16:56:22
416,Curaca,-8.9903,-39.9094,97.05,25,29,6.53,BR,2021-10-20 16:56:23
417,Manaure,11.7751,-72.4445,90.3,56,98,12.68,CO,2021-10-20 16:56:24
418,Hualmay,-11.0964,-77.6139,69.6,72,87,10.83,PE,2021-10-20 16:56:24
419,Brokopondo,4.75,-55.1667,88.83,50,3,0.67,SR,2021-10-20 16:56:24
420,Hervey Bay,-25.2986,152.8535,63.03,75,4,10.09,AU,2021-10-20 16:56:25
421,Tommot,58.9564,126.2925,32.4,88,100,11.03,RU,2021-10-20 16:56:25
422,Iwanai,42.9744,140.5089,43.43,97,100,8.14,JP,2021-10-20 16:56:26
423,Adamas,36.7333,24.4333,62.02,63,0,13.85,GR,2021-10-20 16:56:26
424,Bandarbeyla,9.4942,50.8122,78.55,82,29,9.93,SO,2021-10-20 16:56:27
425,Marsh Harbour,26.5412,-77.0636,79.83,56,32,15.88,BS,2021-10-20 16:56:27
426,Leh,34.1667,77.5833,46.22,27,0,4.76,IN,2021-10-20 16:56:28
427,Kiruna,67.8557,20.2251,20.32,93,90,10.36,SE,2021-10-20 16:56:28
428,Chabahar,25.2919,60.643,79.25,80,4,6.11,IR,2021-10-20 16:51:45
429,Panalingaan,8.7842,117.4231,78.69,89,99,2.44,PH,2021-10-20 16:56:29
430,Luganville,-15.5333,167.1667,75.92,92,100,7.34,VU,2021-10-20 16:56:29
431,Turbat,26.0023,63.044,79.11,66,0,8.99,PK,2021-10-20 16:51:36
432,Yar-Sale,66.8333,70.8333,29.21,89,47,5.17,RU,2021-10-20 16:56:30
433,Sinegorye,62.0788,150.477,-11.85,72,2,4.07,RU,2021-10-20 16:56:30
434,Kurtamysh,54.9103,64.4319,48.63,46,100,7.16,RU,2021-10-20 16:56:31
435,Huarmey,-10.0681,-78.1522,70.5,73,87,10.4,PE,2021-10-20 16:56:31
436,Maracacume,-2.0428,-45.9592,87.28,58,68,2.91,BR,2021-10-20 16:56:32
437,Lasa,46.6166,10.7002,53.37,94,100,4.97,IT,2021-10-20 16:56:32
438,Lazurne,46.084,32.5295,53.02,70,47,12.5,UA,2021-10-20 16:56:33
439,Velsk,61.0701,42.0983,31.71,80,99,9.95,RU,2021-10-20 16:56:33
440,Hovd,48.0056,91.6419,34.34,49,70,1.3,MN,2021-10-20 16:56:34
441,Kidal,18.4411,1.4078,94.19,10,18,15.46,ML,2021-10-20 16:56:35
442,Talavera,15.6167,120.9333,75.04,90,96,3.65,PH,2021-10-20 16:56:36
443,Zhirnov,48.1709,41.1261,40.55,48,30,5.1,RU,2021-10-20 16:56:36
444,Ambanja,-13.6833,48.45,74.98,83,33,2.77,MG,2021-10-20 16:56:37
445,Konin,52.2234,18.2512,64.06,60,99,17.74,PL,2021-10-20 16:56:37
446,Tsuruoka,38.7217,139.8217,52.14,71,100,21.52,JP,2021-10-20 16:56:38
447,Antofagasta,-23.65,-70.4,67.21,52,2,9.55,CL,2021-10-20 16:52:33
448,Lepe,37.2548,-7.2043,77.11,54,27,11.99,ES,2021-10-20 16:56:39
449,Tucupita,9.0622,-62.051,92.77,40,23,5.46,VE,2021-10-20 16:56:39
450,Dzaoudzi,-12.7887,45.2699,78.69,73,0,9.22,YT,2021-10-20 16:56:40
451,Kant,27.8,79.8,73.08,70,0,3.09,IN,2021-10-20 16:56:40
452,Namatanai,-3.6667,152.4333,78.73,83,49,4.12,PG,2021-10-20 16:56:40
453,Zhicheng,30.2956,111.5047,50.41,94,100,1.77,CN,2021-10-20 16:56:41
454,Saint-Donat-De-Montcalm,46.3187,-74.2219,55.4,53,51,4.41,CA,2021-10-20 16:56:41
455,Cheney,47.4874,-117.5758,55.26,74,90,4.61,US,2021-10-20 16:56:42
456,Los Llanos De Aridane,28.6585,-17.9182,78.55,47,59,13.8,ES,2021-10-20 16:56:42
457,Olafsvik,64.8945,-23.7142,38.28,61,81,10.07,IS,2021-10-20 16:56:43
458,Turkistan,43.0,68.0,62.74,43,71,9.28,KZ,2021-10-20 16:56:43
459,Terrace Bay,48.7834,-87.1,40.62,53,9,10.02,CA,2021-10-20 16:56:23
460,Bronnoysund,65.4625,12.1997,46.4,87,75,11.5,NO,2021-10-20 16:56:44
461,Adrar,20.5022,-10.0711,91.62,12,35,16.78,MR,2021-10-20 16:56:44
462,Fort-Shevchenko,44.5086,50.263,50.07,49,53,24.9,KZ,2021-10-20 16:56:45
463,Nuevo Progreso,23.1667,-97.95,86.9,52,6,3.0,MX,2021-10-20 16:56:45
464,Toba,34.4833,136.85,55.4,61,100,26.17,JP,2021-10-20 16:56:46
465,Panjab,34.388,67.0233,43.03,25,0,3.47,AF,2021-10-20 16:56:46
466,Windham,41.8334,-72.0001,72.01,60,88,11.41,US,2021-10-20 16:56:47
467,Buala,-8.145,159.5921,79.3,81,52,1.1,SB,2021-10-20 16:56:47
468,Henties Bay,-22.116,14.2845,61.86,89,24,4.9,NA,2021-10-20 16:52:52
469,Omsukchan,62.5333,155.8,-12.08,97,44,4.56,RU,2021-10-20 16:56:48
470,Mildura,-34.2,142.15,69.76,37,90,11.5,AU,2021-10-20 16:56:48
471,Mayumba,-3.432,10.6554,76.86,82,80,6.82,GA,2021-10-20 16:56:49
472,Aksarka,66.5606,67.7975,26.04,91,8,7.14,RU,2021-10-20 16:56:49
473,Dahuk,36.8695,42.994,66.06,39,4,3.13,IQ,2021-10-20 16:56:49
474,Domoni,-12.2569,44.5319,77.81,77,9,2.26,KM,2021-10-20 16:56:50
475,San Quintin,30.4833,-115.95,65.14,65,38,7.09,MX,2021-10-20 16:56:50
476,Lubango,-14.9172,13.4925,78.66,27,75,6.91,AO,2021-10-20 16:54:16
477,Lucea,18.451,-78.1736,85.86,76,47,11.92,JM,2021-10-20 16:56:51
478,Kirakira,-10.4544,161.9205,79.12,84,72,2.15,SB,2021-10-20 16:56:51
479,Dunedin,-45.8742,170.5036,47.8,81,85,4.09,NZ,2021-10-20 16:56:52
480,Cheyenne,41.14,-104.8203,50.18,65,1,17.27,US,2021-10-20 16:53:32
481,Jalu,29.0331,21.5482,77.27,36,39,11.7,LY,2021-10-20 16:47:37
482,Churapcha,62.0025,132.4325,19.6,96,100,6.22,RU,2021-10-20 16:56:52
483,Ahipara,-35.1667,173.1667,59.23,94,100,11.83,NZ,2021-10-20 16:56:53
484,Illela,13.7292,5.2975,95.32,28,55,5.55,NG,2021-10-20 16:56:53
485,Mufumbwe,-13.6833,24.8,77.63,43,86,6.38,ZM,2021-10-20 16:56:54
486,Nyuksenitsa,60.4128,44.2397,29.01,88,84,6.49,RU,2021-10-20 16:55:47
487,Winnemucca,40.973,-117.7357,51.12,33,84,5.46,US,2021-10-20 16:56:55
488,Venezuela,8.0,-66.0,90.41,50,32,13.8,VE,2021-10-20 16:56:55
489,Morant Bay,17.8815,-76.4093,89.22,76,44,9.15,JM,2021-10-20 16:56:55
490,Amahai,-3.3333,128.9167,77.85,83,42,4.32,ID,2021-10-20 16:56:56
491,Zaysan,47.4667,84.8667,49.19,29,0,5.26,KZ,2021-10-20 16:56:56
492,Price,39.5994,-110.8107,44.11,81,75,5.75,US,2021-10-20 16:52:38
493,Gimbi,9.1667,35.8333,56.46,68,61,1.7,ET,2021-10-20 16:56:57
494,Halifax,44.6453,-63.5724,54.0,73,75,1.99,CA,2021-10-20 16:54:48
495,Honiara,-9.4333,159.95,77.88,87,74,1.19,SB,2021-10-20 16:56:58
496,Vostok,46.4856,135.8833,15.87,82,18,3.49,RU,2021-10-20 16:56:58
497,Damghan,36.1683,54.348,58.71,59,6,8.28,IR,2021-10-20 16:56:59
498,Buchanan,5.8808,-10.0467,85.96,75,97,10.45,LR,2021-10-20 16:56:59
499,Haines Junction,60.7522,-137.5108,19.35,93,79,1.14,CA,2021-10-20 16:57:00
500,Berlevag,70.8578,29.0864,22.95,74,0,8.05,NO,2021-10-20 16:57:00
501,Baglung,28.2719,83.5898,66.04,98,94,0.22,NP,2021-10-20 16:57:01
502,Conceicao Do Araguaia,-8.2578,-49.2647,100.24,29,94,0.89,BR,2021-10-20 16:57:03
503,Dharchula,29.85,80.5333,63.46,85,1,4.34,IN,2021-10-20 16:57:03
504,Sisimiut,66.9395,-53.6735,31.55,73,100,7.09,GL,2021-10-20 16:57:04
505,Purpe,64.4803,76.6897,32.85,76,98,9.33,RU,2021-10-20 16:57:05
506,Huejuquilla El Alto,22.6,-103.8667,72.99,46,3,0.94,MX,2021-10-20 16:57:05
507,Warri,5.5167,5.75,79.45,85,93,6.08,NG,2021-10-20 16:57:06
508,Tambovka,50.0969,128.0489,26.71,68,4,4.14,RU,2021-10-20 16:57:06
509,Sai Buri,6.7013,101.6168,77.79,85,99,1.36,TH,2021-10-20 16:57:07
510,Whitehorse,60.7161,-135.0538,36.37,60,75,16.11,CA,2021-10-20 16:57:07
511,Buritizeiro,-17.3511,-44.9622,88.79,43,48,5.19,BR,2021-10-20 16:57:08
512,Fortuna,40.5982,-124.1573,59.94,74,1,4.0,US,2021-10-20 16:57:08
513,Mae Hong Son,19.3003,97.9685,73.67,94,21,0.85,TH,2021-10-20 16:57:09
514,Helong,42.5397,128.9972,29.71,68,0,4.76,CN,2021-10-20 16:57:09
515,Pecos,31.4229,-103.4932,74.05,53,1,9.22,US,2021-10-20 16:57:10
516,Santa Maria Da Vitoria,-13.3947,-44.1886,91.74,36,58,6.8,BR,2021-10-20 16:57:10
517,Palatka,29.6486,-81.6376,84.07,39,5,5.53,US,2021-10-20 16:57:11
518,Porto Tolle,44.9497,12.3245,65.05,73,100,10.71,IT,2021-10-20 16:57:12
519,Lock Haven,41.137,-77.4469,71.87,55,1,9.55,US,2021-10-20 16:57:12
520,Douglas,41.3,-96.167,53.51,84,90,4.0,US,2021-10-20 16:57:12
521,Hofn,64.2539,-15.2082,33.82,55,20,29.93,IS,2021-10-20 16:57:13
522,Khuzhir,53.1939,107.3397,39.13,69,6,2.21,RU,2021-10-20 16:57:13
523,Fuengirola,36.54,-4.6247,76.35,54,0,6.91,ES,2021-10-20 16:54:32
524,Kangaatsiaq,68.3065,-53.4641,32.2,71,100,14.12,GL,2021-10-20 16:52:32
525,Hoquiam,46.9809,-123.8893,56.93,65,90,10.36,US,2021-10-20 16:57:14
526,Cabra,37.4725,-4.4421,83.64,29,98,4.97,ES,2021-10-20 16:57:15
527,Kahului,20.8947,-156.47,74.84,83,1,1.01,US,2021-10-20 16:56:56
528,Kathmandu,27.7167,85.3167,66.42,94,75,4.61,NP,2021-10-20 16:56:02
529,Pogar,52.554,33.2591,46.26,67,100,20.07,RU,2021-10-20 16:57:16
530,Muzhi,65.3667,64.6667,30.47,82,21,4.43,RU,2021-10-20 16:57:16
531,Amberley,39.2048,-84.428,70.54,64,0,1.99,US,2021-10-20 16:57:18
532,Mazatlan,23.2167,-106.4167,87.03,75,12,1.99,MX,2021-10-20 16:48:38
533,Ust-Koksa,50.2696,85.6108,33.89,52,0,1.79,RU,2021-10-20 16:57:19
534,Merauke,-8.4667,140.3333,78.93,85,62,6.87,ID,2021-10-20 16:57:19
535,Sakakah,29.9697,40.2064,80.17,30,2,9.08,SA,2021-10-20 16:57:20
536,Shumerlya,55.5005,46.4129,36.36,62,100,4.92,RU,2021-10-20 16:57:21
537,Lake Havasu City,34.4839,-114.3224,71.1,26,1,1.01,US,2021-10-20 16:57:21
538,Awbari,26.5921,12.7805,81.45,29,88,8.81,LY,2021-10-20 16:57:22
539,Port Hawkesbury,45.6169,-61.3485,56.59,87,90,5.01,CA,2021-10-20 16:57:22
540,Oranjemund,-28.55,16.4333,61.84,76,66,12.19,NA,2021-10-20 16:55:14
541,Aykhal,66.0,111.5,29.73,97,100,18.48,RU,2021-10-20 16:57:23
542,Alice Springs,-23.7,133.8833,78.35,36,40,8.05,AU,2021-10-20 16:57:24
543,Port Hedland,-20.3167,118.5667,73.45,73,0,10.36,AU,2021-10-20 16:48:42
544,Khorixas,-20.3667,14.9667,71.53,32,2,19.57,NA,2021-10-20 16:57:24
545,Nanortalik,60.1432,-45.2371,39.9,72,3,2.24,GL,2021-10-20 16:57:25
546,Floro,61.5996,5.0328,47.23,93,75,4.61,NO,2021-10-20 16:57:26
547,Sitangkai,4.6628,119.3928,83.59,70,39,3.49,PH,2021-10-20 16:57:27
548,Mpanda,-6.3655,31.0409,79.03,44,82,2.66,TZ,2021-10-20 16:57:27
549,Aquiraz,-3.9014,-38.3911,89.22,57,62,12.39,BR,2021-10-20 16:55:38
550,Turukhansk,65.8167,87.9833,40.39,93,100,14.63,RU,2021-10-20 16:52:57
551,Ejura,7.3856,-1.3562,82.0,80,93,1.92,GH,2021-10-20 16:57:28
552,Jasper,37.2001,-94.3502,73.35,71,90,7.0,US,2021-10-20 16:56:34
553,Zhezkazgan,47.8043,67.7144,54.21,35,100,8.84,KZ,2021-10-20 16:57:29
554,Filadelfia,39.9523,-75.1638,76.55,51,22,3.0,US,2021-10-20 16:56:38
555,Mehamn,71.0357,27.8492,28.58,63,100,17.54,NO,2021-10-20 16:57:31
556,Ornskoldsvik,63.2909,18.7153,43.75,100,90,8.05,SE,2021-10-20 16:57:32
557,Belmonte,-15.8631,-38.8828,86.5,66,47,11.18,BR,2021-10-20 16:57:32
558,Marsa Matruh,31.3525,27.2453,73.6,53,75,13.8,EG,2021-10-20 16:57:32
559,Seoul,37.5683,126.9778,45.84,90,0,3.44,KR,2021-10-20 16:48:14
560,Nizhneudinsk,54.9076,99.0276,33.15,83,9,4.29,RU,2021-10-20 16:57:33
561,Sterling,39.0062,-77.4286,76.1,48,1,1.01,US,2021-10-20 16:57:34
562,Mandalgovi,45.7625,106.2708,29.61,56,0,7.23,MN,2021-10-20 16:57:34
563,Barabai,-2.5833,115.3833,74.07,96,74,1.59,ID,2021-10-20 16:57:35
564,Lafiagi,8.8667,5.4167,81.43,79,99,2.93,NG,2021-10-20 16:57:35
565,Maniitsoq,65.4167,-52.9,34.7,53,33,5.21,GL,2021-10-20 16:57:36
566,Ulaanbaatar,47.9077,106.8832,17.73,79,0,2.24,MN,2021-10-20 16:56:45
567,Oskaloosa,41.2964,-92.6444,68.58,60,90,13.8,US,2021-10-20 16:57:37
568,Fort Saint James,54.4333,-124.25,37.4,80,100,2.06,CA,2021-10-20 16:57:37
569,Darnah,32.767,22.6367,69.35,65,83,12.77,LY,2021-10-20 16:57:38
570,Ascension,30.2169,-90.9001,84.99,80,75,8.05,US,2021-10-20 16:57:39
571,Larsnes,62.2028,5.5773,47.86,94,100,8.95,NO,2021-10-20 16:57:40
572,Bat Khela,34.6167,71.9714,69.76,45,0,5.82,PK,2021-10-20 16:57:41
573,Bonavista,48.6499,-53.1147,51.12,97,100,12.12,CA,2021-10-20 16:57:41
574,Ayan,56.45,138.1667,36.0,58,100,6.69,RU,2021-10-20 16:57:42
575,Chilca,-12.5211,-76.7372,71.85,77,99,7.76,PE,2021-10-20 16:57:44
576,Toamasina,-18.1667,49.3833,75.2,83,40,3.44,MG,2021-10-20 16:57:45
577,Kavaratti,10.5669,72.642,82.22,74,66,12.64,IN,2021-10-20 16:57:46
578,Nauta,-4.5061,-73.5757,86.25,66,93,1.99,PE,2021-10-20 16:57:47
579,Okhotsk,59.3833,143.3,11.1,72,29,8.88,RU,2021-10-20 16:57:48
580,Iquique,-20.2208,-70.1431,62.64,65,21,7.99,CL,2021-10-20 16:57:23
581,Panguna,-6.3164,155.4848,68.63,96,88,0.78,PG,2021-10-20 16:57:50
582,Constitucion,-35.3333,-72.4167,59.95,70,67,8.3,CL,2021-10-20 16:57:50
583,Kisangani,0.5167,25.2,70.11,93,99,0.74,CD,2021-10-20 16:57:51
584,Kununurra,-15.7667,128.7333,82.38,69,81,3.44,AU,2021-10-20 16:57:51
585,Yeroham,30.9872,34.9314,64.53,60,100,14.09,IL,2021-10-20 16:57:51
586,Lashio,22.9333,97.75,66.65,99,68,1.28,MM,2021-10-20 16:57:52
587,Ilulissat,69.2167,-51.1,28.96,78,100,4.32,GL,2021-10-20 16:57:52
588,Ishigaki,24.3448,124.1572,79.09,75,100,12.37,JP,2021-10-20 16:57:53
589,Mlonggo,-6.5333,110.7,79.52,76,84,2.95,ID,2021-10-20 16:57:54
590,Florianopolis,-27.6146,-48.5012,67.41,45,75,11.5,BR,2021-10-20 16:53:13
591,Kikwit,-5.041,18.8162,72.73,95,47,2.98,CD,2021-10-20 16:57:55
592,Bezhanitsy,56.9767,29.8907,48.36,93,100,16.71,RU,2021-10-20 16:57:55
593,Moen,69.1304,18.6123,30.27,63,75,21.85,NO,2021-10-20 16:57:56
594,Vila Franca Do Campo,37.7167,-25.4333,70.21,68,85,1.14,PT,2021-10-20 16:57:56
595,Korla,41.7597,86.1469,54.99,27,54,1.25,CN,2021-10-20 16:57:57
596,Pacific Grove,36.6177,-121.9166,65.28,65,100,3.0,US,2021-10-20 16:57:57
597,Patacamaya,-17.2333,-67.9167,63.66,15,48,4.03,BO,2021-10-20 16:57:58
598,Port Blair,11.6667,92.75,81.09,82,47,6.24,IN,2021-10-20 16:57:58
599,Swinoujscie,53.9105,14.2471,63.48,77,0,16.11,PL,2021-10-20 16:57:59
600,Baturaja,-4.1333,104.1667,73.4,98,96,1.61,ID,2021-10-20 16:57:59
601,Isaka,-3.9,32.9333,80.87,40,92,5.61,TZ,2021-10-20 16:58:00
602,Orsha,54.5153,30.4053,44.82,90,100,19.71,BY,2021-10-20 16:58:00
603,Mayo,38.8876,-76.5119,77.2,48,16,7.0,US,2021-10-20 16:58:01
604,Bondoukou,8.0333,-2.8,78.46,88,100,3.29,CI,2021-10-20 16:58:01
605,Tabory,58.5198,64.5495,37.65,68,100,7.31,RU,2021-10-20 16:58:02
606,Suzuka,34.8833,136.5833,55.29,66,99,10.89,JP,2021-10-20 16:58:03
607,Mahon,39.8885,4.2658,70.36,64,20,5.75,ES,2021-10-20 16:58:03
608,Murgab,37.4966,61.9714,62.47,63,75,4.61,TM,2021-10-20 16:58:04
609,Muyezerskiy,63.9333,31.65,29.3,95,100,14.97,RU,2021-10-20 16:58:04
610,Villacarrillo,38.1156,-3.0848,72.0,33,93,3.85,ES,2021-10-20 16:58:05
611,Cabedelo,-6.9811,-34.8339,88.47,67,30,11.23,BR,2021-10-20 16:58:05
612,Port Arthur,38.8,121.2667,57.9,49,63,9.89,CN,2021-10-20 16:58:06
613,Matamoros,25.5333,-103.25,78.12,45,2,1.81,MX,2021-10-20 16:58:06
614,Port Augusta,-32.5,137.7667,62.74,60,73,6.78,AU,2021-10-20 16:58:07
615,Kodinsk,58.6881,99.1844,35.1,92,46,4.23,RU,2021-10-20 16:58:07
616,Asyut,27.181,31.1837,78.98,33,44,15.43,EG,2021-10-20 16:56:53
617,Ullapool,57.8987,-5.1604,42.35,70,100,13.2,GB,2021-10-20 16:58:08
618,Trofors,65.5333,13.4063,45.75,98,100,5.53,NO,2021-10-20 16:58:08
619,Acarau,-2.8856,-40.12,86.52,60,94,14.9,BR,2021-10-20 16:58:08
620,Lalsk,60.7415,47.5862,27.43,88,59,4.12,RU,2021-10-20 16:58:09
621,Sovetsk,55.0839,21.8785,60.28,66,95,19.64,RU,2021-10-20 16:58:09
622,Pavlodar,52.3,76.95,39.0,65,0,8.95,KZ,2021-10-20 16:58:10
623,Urengoy,65.9667,78.3667,34.48,84,100,11.1,RU,2021-10-20 16:58:11
624,Rocha,-34.4833,-54.3333,70.02,50,14,6.31,UY,2021-10-20 16:58:11
625,Ketchikan,55.3422,-131.6461,43.09,87,100,5.32,US,2021-10-20 16:56:33
626,Sorong,-0.8833,131.25,80.51,81,90,5.64,ID,2021-10-20 16:58:12
627,Maningrida,-12.0667,134.2667,78.12,78,57,4.03,AU,2021-10-20 16:58:12
628,Gryazovets,58.88,40.2525,31.87,76,100,14.03,RU,2021-10-20 16:58:13
629,Nurota,40.5614,65.6886,53.69,58,20,3.69,UZ,2021-10-20 16:58:13
630,Behbahan,30.5959,50.2417,85.32,17,17,10.33,IR,2021-10-20 16:58:14
631,Sistranda,63.7256,8.834,47.89,81,100,23.85,NO,2021-10-20 16:58:14
632,Oyama,36.3,139.8,59.59,50,1,3.44,JP,2021-10-20 16:58:15
633,Ginda,30.6945,78.4932,57.09,85,0,4.76,IN,2021-10-20 16:58:16
634,Mastic Beach,40.7668,-72.8521,75.25,56,65,1.01,US,2021-10-20 16:58:16
635,Gemena,3.25,19.7667,71.02,98,100,2.71,CD,2021-10-20 16:58:17
636,Manuk Mangkaw,4.8,119.85,83.53,68,73,3.29,PH,2021-10-20 16:58:17
637,Smithers,54.7804,-127.1743,35.92,100,90,0.0,CA,2021-10-20 16:53:51
638,Yelan,50.949,43.7378,35.47,71,48,6.06,RU,2021-10-20 16:58:18
639,Kuching,1.55,110.3333,77.22,94,20,0.0,MY,2021-10-20 16:55:19
640,Pastavy,55.1168,26.8326,53.33,88,100,18.21,BY,2021-10-20 16:58:18
641,Tiznit,29.5833,-9.5,80.47,24,11,4.03,MA,2021-10-20 16:58:19
642,Atbasar,51.8,68.3333,49.75,53,97,14.41,KZ,2021-10-20 16:58:19
643,Kashi,39.4547,75.9797,56.41,28,100,6.71,CN,2021-10-20 16:58:20
644,Denpasar,-8.65,115.2167,82.06,88,20,6.91,ID,2021-10-20 16:56:09
645,Talcahuano,-36.7167,-73.1167,55.08,88,90,13.8,CL,2021-10-20 16:56:15
646,Sumenep,-7.0167,113.8667,83.01,73,84,3.56,ID,2021-10-20 16:58:21
647,Hidalgo,20.5,-99.0,67.73,59,77,4.43,MX,2021-10-20 16:58:21
648,Jinchang,38.4953,102.1739,42.85,43,5,5.53,CN,2021-10-20 16:58:22
649,Clyde River,70.4692,-68.5914,30.43,86,75,9.22,CA,2021-10-20 16:58:22
650,Vao,-22.6667,167.4833,69.85,95,100,11.1,NC,2021-10-20 16:58:23
651,Senno,59.5336,33.9167,32.27,91,100,14.74,RU,2021-10-20 16:58:23
652,Rancho Palos Verdes,33.7445,-118.387,69.67,83,45,3.0,US,2021-10-20 16:58:24
653,Miri,4.4148,114.0089,73.54,100,40,5.75,MY,2021-10-20 16:58:24
654,Moose Factory,51.2585,-80.6094,40.98,70,40,12.66,CA,2021-10-20 16:58:25
655,Pozo Colorado,-23.4923,-58.7972,90.97,23,0,4.76,PY,2021-10-20 16:58:25
656,Meulaboh,4.1363,96.1285,75.92,87,100,7.34,ID,2021-10-20 16:58:26
657,Hamilton,39.1834,-84.5333,71.22,64,1,1.01,US,2021-10-20 16:55:40
658,Birjand,32.8663,59.2211,63.07,9,0,4.61,IR,2021-10-20 16:58:27
659,College,64.8569,-147.8028,27.59,82,52,3.29,US,2021-10-20 16:58:27
660,Diamantino,-14.4086,-56.4461,89.92,47,63,2.93,BR,2021-10-20 16:57:14
661,Mariinsk,56.2139,87.7472,39.96,63,78,5.28,RU,2021-10-20 16:58:28
662,Xihe,31.6864,113.4659,48.38,92,91,4.68,CN,2021-10-20 16:58:28
663,Nouadhibou,20.931,-17.0347,78.78,69,0,14.97,MR,2021-10-20 16:58:29
664,Bandrele,-12.9067,45.1914,78.55,73,0,9.22,YT,2021-10-20 16:58:29
665,Corinto,37.9407,22.9573,64.83,68,0,3.11,GR,2021-10-20 16:58:29
666,Tura,25.5198,90.2201,71.42,98,100,2.55,IN,2021-10-20 16:58:30
667,Kushima,31.4583,131.2333,60.24,71,100,5.55,JP,2021-10-20 16:58:30
668,Axim,4.8699,-2.2405,80.56,81,99,9.55,GH,2021-10-20 16:58:31
669,Ostersund,63.1792,14.6357,41.45,100,75,0.0,SE,2021-10-20 16:58:31
670,Rey Bouba,8.6724,14.1786,80.83,75,87,3.98,CM,2021-10-20 16:58:32
671,Nicolas Bravo,18.45,-88.9167,83.46,69,96,4.7,MX,2021-10-20 16:58:32
672,Praya,14.9215,-23.5087,90.14,40,0,20.71,CV,2021-10-20 16:56:30
673,Imphal,24.8167,93.95,68.49,98,98,0.72,IN,2021-10-20 16:53:40
674,Surt,31.2089,16.5887,73.15,69,66,16.06,LY,2021-10-20 16:58:33
675,Nadym,65.5333,72.5167,30.65,83,17,9.84,RU,2021-10-20 16:58:34
676,Clearwater,27.9659,-82.8001,85.21,55,1,11.01,US,2021-10-20 16:57:44
677,Beaverton,45.4871,-122.8037,56.91,88,100,1.99,US,2021-10-20 16:56:32
678,Vitim,59.4511,112.5578,35.4,98,100,7.7,RU,2021-10-20 16:58:35
679,Vanimo,-2.6741,141.3028,77.18,89,100,3.51,PG,2021-10-20 16:58:35
680,Jizan,17.3333,42.6667,88.74,57,86,7.56,SA,2021-10-20 16:58:36
681,Graneros,-34.0667,-70.7333,55.58,76,90,3.44,CL,2021-10-20 16:58:36
682,Darnetal,49.4453,1.1514,65.95,75,75,4.0,FR,2021-10-20 16:58:37
683,Iznoski,54.9881,35.3108,35.47,91,100,15.1,RU,2021-10-20 16:58:37
684,Nuuk,64.1835,-51.7216,32.88,64,3,11.99,GL,2021-10-20 16:58:38
685,San Luis,-33.295,-66.3356,81.54,17,36,11.88,AR,2021-10-20 16:58:38
686,Ulladulla,-35.35,150.4667,59.77,93,86,6.91,AU,2021-10-20 16:58:39
687,Gamba,-2.65,10.0,76.82,81,87,7.31,GA,2021-10-20 16:54:17
688,Safranbolu,41.2508,32.6942,48.54,73,1,1.59,TR,2021-10-20 16:58:40
689,Muravlenko,63.7898,74.523,31.53,81,100,6.71,RU,2021-10-20 16:58:41
690,Castrillon,43.3979,-6.7922,72.14,63,43,14.47,ES,2021-10-20 16:58:41
691,Manokwari,-0.8667,134.0833,78.46,81,98,5.26,ID,2021-10-20 16:58:41
692,Mason City,43.1536,-93.201,64.72,77,90,10.36,US,2021-10-20 16:58:42
693,Kudahuvadhoo,2.6708,72.8944,83.07,70,30,15.3,MV,2021-10-20 16:57:26
694,Soure,-0.7167,-48.5233,85.51,63,65,11.36,BR,2021-10-20 16:58:43
695,Bima,-8.4667,118.7167,78.93,89,85,3.62,ID,2021-10-20 16:58:43
696,Paita,-5.0892,-81.1144,75.76,72,96,14.2,PE,2021-10-20 16:58:43
697,Novoagansk,61.9449,76.6625,39.42,88,100,6.31,RU,2021-10-20 16:58:44
698,Vanino,49.0869,140.2543,24.46,78,24,4.7,RU,2021-10-20 16:58:44
